City_ID,City,Lat,Lng,Max Temp,Humidity,Cloudiness,Wind Speed,Country,Date
0,Rikitea,-23.1203,-134.9692,79.0,71,0,16.55,PF,2022-02-13 06:21:18
1,Bambous Virieux,-20.3428,57.7575,86.25,74,40,14.97,MU,2022-02-13 06:21:19
2,Mount Gambier,-37.8333,140.7667,74.1,39,100,8.7,AU,2022-02-13 06:21:19
3,Nagato,34.3833,131.2,46.35,87,100,4.27,JP,2022-02-13 06:21:20
4,Sistranda,63.7256,8.834,41.9,73,100,16.49,NO,2022-02-13 06:12:26
5,Progreso,21.2833,-89.6667,72.1,90,34,18.5,MX,2022-02-13 06:21:21
6,Houston,29.7633,-95.3633,41.92,60,0,14.97,US,2022-02-13 06:19:17
7,Hobart,-42.8794,147.3294,77.02,48,75,16.11,AU,2022-02-13 06:18:28
8,Mahibadhoo,3.7833,72.9667,81.0,73,100,4.61,MV,2022-02-13 06:21:22
9,Xuanhua,40.6103,115.0447,24.26,74,100,11.07,CN,2022-02-13 06:21:22
10,Arica,-18.475,-70.3042,69.22,76,53,3.11,CL,2022-02-13 06:16:42
11,Ushuaia,-54.8,-68.3,44.26,70,75,6.91,AR,2022-02-13 06:21:23
12,Hilo,19.7297,-155.09,73.13,73,40,3.44,US,2022-02-13 06:21:23
13,Pacific Grove,36.6177,-121.9166,61.56,70,0,4.61,US,2022-02-13 06:17:14
14,Ribeira Grande,38.5167,-28.7,61.39,88,94,15.32,PT,2022-02-13 06:21:24
15,Labuhan,-6.8844,112.2051,84.38,65,90,10.65,ID,2022-02-13 06:21:24
16,Encheng,22.1839,112.3026,64.96,70,100,7.0,CN,2022-02-13 06:21:25
17,Port Alfred,-33.5906,26.891,74.91,90,100,18.43,ZA,2022-02-13 06:21:26
18,Key Largo,25.0865,-80.4473,75.0,86,65,7.31,US,2022-02-13 06:21:26
19,Mataura,-46.1927,168.8643,52.48,96,100,3.27,NZ,2022-02-13 06:21:26
20,Caravelas,-17.7125,-39.2481,74.98,86,100,1.83,BR,2022-02-13 06:21:27
21,Rimbey,52.6334,-114.2353,47.32,69,81,10.36,CA,2022-02-13 06:21:27
22,Hovd,48.0056,91.6419,-6.95,86,100,4.27,MN,2022-02-13 06:21:28
23,Tiksi,71.6872,128.8694,-6.11,86,100,14.32,RU,2022-02-13 06:21:28
24,Victoria,22.2855,114.1577,67.17,89,100,4.0,HK,2022-02-13 06:19:52
25,Meulaboh,4.1363,96.1285,85.32,66,73,5.68,ID,2022-02-13 06:21:29
26,Shache,38.4167,77.2406,44.24,27,85,3.69,CN,2022-02-13 06:21:29
27,Punta Arenas,-53.15,-70.9167,55.51,76,0,20.71,CL,2022-02-13 06:21:30
28,Andenes,69.3143,16.1194,28.38,64,40,18.41,NO,2022-02-13 06:21:30
29,Cape Town,-33.9258,18.4232,72.88,79,0,17.27,ZA,2022-02-13 06:17:21
30,Menongue,-14.6585,17.691,64.17,95,100,4.94,AO,2022-02-13 06:21:31
31,Tezu,27.9167,96.1667,73.15,24,0,4.65,IN,2022-02-13 06:21:31
32,Nishihara,26.1842,127.7558,71.26,91,100,12.66,JP,2022-02-13 06:21:32
33,Makat,47.6469,53.3463,32.22,100,100,6.51,KZ,2022-02-13 06:21:32
34,Flin Flon,54.7682,-101.865,-9.54,92,28,7.61,CA,2022-02-13 06:21:33
35,Holme,56.1138,10.1725,40.86,85,100,19.17,DK,2022-02-13 06:21:33
36,Vestmannaeyjar,63.4427,-20.2734,31.51,90,97,17.76,IS,2022-02-13 06:21:34
37,Kawalu,-7.3817,108.2082,80.82,78,94,2.77,ID,2022-02-13 06:21:35
38,Lebu,-37.6167,-73.65,57.2,90,100,2.21,CL,2022-02-13 06:21:35
39,Georgetown,5.4112,100.3354,89.53,66,40,9.22,MY,2022-02-13 06:21:36
40,Alofi,-19.0595,-169.9187,80.49,78,86,8.05,NU,2022-02-13 06:21:36
41,Andrushivka,50.0229,29.0202,28.47,72,17,7.09,UA,2022-02-13 06:21:37
42,Nyurba,63.2842,118.3319,-8.97,94,99,2.59,RU,2022-02-13 06:21:37
43,Busselton,-33.65,115.3333,85.08,39,0,5.7,AU,2022-02-13 06:21:37
44,Albany,42.6001,-73.9662,28.81,68,98,1.01,US,2022-02-13 06:21:38
45,New Norfolk,-42.7826,147.0587,75.92,32,100,8.75,AU,2022-02-13 06:22:39
46,Longyearbyen,78.2186,15.6401,12.04,85,75,2.3,SJ,2022-02-13 06:22:39
47,Chuy,-33.6971,-53.4616,63.68,88,100,11.95,UY,2022-02-13 06:22:39
48,Vargashi,55.3556,65.8467,3.07,94,95,4.05,RU,2022-02-13 06:22:40
49,Bluff,-46.6,168.3333,52.81,78,100,11.27,NZ,2022-02-13 06:21:58
50,Finschhafen,-6.6024,147.8681,82.63,75,56,6.26,PG,2022-02-13 06:22:41
51,Olavarria,-36.8927,-60.3225,49.93,65,0,5.95,AR,2022-02-13 06:22:41
52,Atuona,-9.8,-139.0333,78.13,78,18,14.25,PF,2022-02-13 06:22:42
53,Kavieng,-2.5744,150.7967,82.27,73,100,3.2,PG,2022-02-13 06:22:42
54,Torbay,47.6666,-52.7314,45.57,95,100,25.32,CA,2022-02-13 06:22:43
55,Dorado,18.4588,-66.2677,73.99,98,30,11.79,PR,2022-02-13 06:20:06
56,Lata,40.1629,-8.3327,42.06,90,76,3.13,PT,2022-02-13 06:22:43
57,Ranong,9.9658,98.6348,89.53,57,57,0.83,TH,2022-02-13 06:22:44
58,Pundaguitan,6.3711,126.1689,81.55,75,99,13.49,PH,2022-02-13 06:22:44
59,Hermanus,-34.4187,19.2345,72.81,79,72,5.79,ZA,2022-02-13 06:22:45
60,Fatehpur,25.9333,80.8,70.48,34,0,2.73,IN,2022-02-13 06:22:45
61,Roebourne,-20.7833,117.1333,95.34,43,71,13.82,AU,2022-02-13 06:22:46
62,Matara,5.9485,80.5353,78.21,84,98,2.91,LK,2022-02-13 06:22:46
63,Havre-Saint-Pierre,50.2334,-63.5986,14.59,73,100,12.66,CA,2022-02-13 06:22:47
64,Castro,-24.7911,-50.0119,57.33,99,28,3.0,BR,2022-02-13 06:22:47
65,Kapoeta,4.7717,33.5903,86.4,28,92,5.41,SS,2022-02-13 06:22:47
66,Nikolskoye,59.7035,30.7861,35.87,93,100,9.37,RU,2022-02-13 06:22:48
67,Nalut,30.3333,10.85,45.91,43,68,12.33,LY,2022-02-13 06:22:48
68,Montrose,38.4166,-108.2673,23.34,62,6,1.59,US,2022-02-13 06:22:49
69,Barrow,71.2906,-156.7887,-29.18,75,0,8.05,US,2022-02-13 06:22:49
70,Butembo,0.15,29.2833,67.96,50,99,1.57,CD,2022-02-13 06:22:50
71,Prince Rupert,54.3161,-130.3201,40.69,93,0,3.44,CA,2022-02-13 06:22:50
72,Altay,47.8667,88.1167,14.27,92,98,3.11,CN,2022-02-13 06:22:51
73,Linxia,35.6003,103.2064,31.42,55,0,2.28,CN,2022-02-13 06:22:51
74,Borger,52.9233,6.7931,34.81,83,95,15.23,NL,2022-02-13 06:22:52
75,Katherine,-14.4667,132.2667,93.52,52,100,8.05,AU,2022-02-13 06:22:52
76,Hami,42.8,93.45,30.99,51,93,3.04,CN,2022-02-13 06:22:53
77,Carnarvon,-24.8667,113.6333,89.67,58,43,17.27,AU,2022-02-13 06:22:53
78,Port Hardy,50.6996,-127.4199,44.76,100,75,3.44,CA,2022-02-13 06:22:55
79,Jamestown,42.097,-79.2353,19.09,85,100,6.91,US,2022-02-13 06:18:34
80,Mandasa,18.8667,84.4667,78.08,34,85,7.9,IN,2022-02-13 06:22:55
81,Kenai,60.5544,-151.2583,26.69,95,100,4.61,US,2022-02-13 06:22:56
82,Qaqortoq,60.7167,-46.0333,28.9,95,100,5.08,GL,2022-02-13 06:22:56
83,Pisco,-13.7,-76.2167,68.05,77,0,5.75,PE,2022-02-13 06:22:57
84,Kutum,14.2,24.6667,58.48,18,13,6.49,SD,2022-02-13 06:22:57
85,Portland,45.5234,-122.6762,51.1,46,0,11.99,US,2022-02-13 06:21:30
86,Bahia Blanca,-38.7196,-62.2724,64.71,32,82,12.26,AR,2022-02-13 06:22:58
87,Ilulissat,69.2167,-51.1,10.42,79,75,8.05,GL,2022-02-13 06:22:58
88,Talnakh,69.4865,88.3972,-4.95,74,39,9.66,RU,2022-02-13 06:22:59
89,Flinders,-34.5833,150.8552,78.06,58,20,11.92,AU,2022-02-13 06:22:59
90,Puerto Escondido,15.85,-97.0667,76.91,63,16,4.72,MX,2022-02-13 06:23:00
91,Hwange,-18.3693,26.5019,69.01,73,47,3.15,ZW,2022-02-13 06:23:00
92,Katsuura,35.1333,140.3,43.11,94,100,5.7,JP,2022-02-13 06:23:01
93,Dolinsk,47.35,142.8,28.26,93,100,13.0,RU,2022-02-13 06:24:01
94,Cabo San Lucas,22.8909,-109.9124,69.51,64,66,4.12,MX,2022-02-13 06:24:02
95,Limbang,4.75,115.0,86.05,58,91,6.2,MY,2022-02-13 06:24:02
96,Hofn,64.2539,-15.2082,21.58,70,18,18.41,IS,2022-02-13 06:22:50
97,Carutapera,-1.195,-46.02,75.27,95,90,5.08,BR,2022-02-13 06:15:15
98,Thompson,55.7435,-97.8558,-23.64,76,75,0.0,CA,2022-02-13 06:24:03
99,Aklavik,68.2191,-135.0107,-30.17,98,37,1.25,CA,2022-02-13 06:24:04
100,Kahului,20.8947,-156.47,73.85,78,0,6.91,US,2022-02-13 06:22:36
101,Port Elizabeth,-33.918,25.5701,71.89,83,75,18.41,ZA,2022-02-13 06:21:14
102,Hobyo,5.3505,48.5268,80.4,55,58,17.72,SO,2022-02-13 06:24:04
103,Khatanga,71.9667,102.5,-17.59,95,67,4.56,RU,2022-02-13 06:24:05
104,Airai,-8.9266,125.4092,70.86,74,84,2.26,TL,2022-02-13 06:24:05
105,Port Lincoln,-34.7333,135.8667,74.71,58,100,13.09,AU,2022-02-13 06:24:06
106,Mersing,2.4312,103.8405,85.91,74,40,8.05,MY,2022-02-13 06:24:06
107,Cururupu,-1.8283,-44.8683,74.3,97,83,2.89,BR,2022-02-13 06:24:07
108,Banyumas,-7.5142,109.2942,87.1,64,98,1.9,ID,2022-02-13 06:24:07
109,Qaanaaq,77.484,-69.3632,-17.28,48,0,8.99,GL,2022-02-13 06:22:00
110,Xifeng,42.7372,124.7222,20.61,50,17,9.66,CN,2022-02-13 06:24:08
111,Znamenskoye,57.1281,73.8282,7.3,92,100,6.98,RU,2022-02-13 06:19:10
112,Terrace,54.5163,-128.6035,31.91,100,75,2.3,CA,2022-02-13 06:24:08
113,Tasiilaq,65.6145,-37.6368,10.56,65,100,5.41,GL,2022-02-13 06:24:09
114,Mar Del Plata,-38.0023,-57.5575,55.87,79,0,3.0,AR,2022-02-13 06:24:10
115,Juneau,58.3019,-134.4197,34.84,95,75,0.0,US,2022-02-13 06:24:10
116,Morondava,-20.2833,44.2833,83.26,78,81,6.13,MG,2022-02-13 06:24:11
117,Saint-Philippe,-21.3585,55.7679,83.79,79,26,13.35,RE,2022-02-13 06:24:11
118,Mahebourg,-20.4081,57.7,86.29,74,40,14.97,MU,2022-02-13 06:24:12
119,Mahanoro,-19.9,48.8,81.84,64,64,12.06,MG,2022-02-13 06:24:13
120,Cuamba,-14.8031,36.5372,73.15,90,95,1.61,MZ,2022-02-13 06:24:13
121,Jishui,33.7333,115.4,47.3,61,81,6.17,CN,2022-02-13 06:24:14
122,Abbeville,50.1,1.8333,37.47,74,81,12.64,FR,2022-02-13 06:23:08
123,Aksu,41.1231,80.2644,36.66,32,94,2.06,CN,2022-02-13 06:24:14
124,Hasaki,35.7333,140.8333,43.09,89,100,13.65,JP,2022-02-13 06:24:15
125,Vaini,-21.2,-175.2,82.56,83,75,6.91,TO,2022-02-13 06:24:16
126,Guerrero Negro,27.9769,-114.0611,65.62,49,100,7.09,MX,2022-02-13 06:24:16
127,Puerto Baquerizo Moreno,-0.9,-89.6,74.19,85,40,6.24,EC,2022-02-13 06:22:39
128,Fortuna,40.5982,-124.1573,49.12,100,0,9.22,US,2022-02-13 06:22:59
129,Half Moon Bay,37.4636,-122.4286,66.51,66,0,0.0,US,2022-02-13 06:24:17
130,Lagoa,39.05,-27.9833,59.76,82,99,17.09,PT,2022-02-13 06:24:18
131,Essenbach,48.6167,12.2167,32.61,85,100,4.99,DE,2022-02-13 06:24:18
132,Bredasdorp,-34.5322,20.0403,72.28,79,82,4.52,ZA,2022-02-13 06:24:19
133,Kodiak,57.79,-152.4072,33.31,86,0,3.44,US,2022-02-13 06:22:34
134,Saskylakh,71.9167,114.0833,-9.09,78,89,4.72,RU,2022-02-13 06:24:19
135,Hambantota,6.1241,81.1185,88.14,74,75,10.36,LK,2022-02-13 06:23:29
136,Kapaa,22.0752,-159.319,73.72,82,40,12.66,US,2022-02-13 06:24:20
137,Yellowknife,62.456,-114.3525,-17.45,82,20,9.22,CA,2022-02-13 06:22:17
138,Vostok,46.4856,135.8833,10.98,87,100,4.74,RU,2022-02-13 06:24:21
139,Arraial Do Cabo,-22.9661,-42.0278,72.1,89,40,5.64,BR,2022-02-13 06:24:21
140,Reconquista,-29.15,-59.65,57.96,89,1,5.88,AR,2022-02-13 06:25:22
141,Shieli,44.1667,66.75,36.03,68,99,10.87,KZ,2022-02-13 06:25:23
142,College,64.8569,-147.8028,11.21,82,100,0.0,US,2022-02-13 06:16:39
143,Palu,-0.8917,119.8707,79.38,86,99,0.98,ID,2022-02-13 06:25:23
144,Naryan-Mar,67.6713,53.087,11.03,96,100,9.1,RU,2022-02-13 06:25:24
145,Touros,-5.1989,-35.4608,79.7,83,15,6.82,BR,2022-02-13 06:25:24
146,Akyab,20.15,92.9,75.33,39,40,7.58,MM,2022-02-13 06:25:25
147,Ngaoundere,7.3167,13.5833,62.53,22,90,3.98,CM,2022-02-13 06:25:26
148,Rawson,-43.3002,-65.1023,69.89,33,56,8.21,AR,2022-02-13 06:24:26
149,Kirakira,-10.4544,161.9205,82.58,78,86,3.4,SB,2022-02-13 06:25:26
150,Avarua,-21.2078,-159.775,77.05,94,89,2.3,CK,2022-02-13 06:22:42
151,Brindisi,40.5833,17.6667,50.77,75,53,9.22,IT,2022-02-13 06:25:27
152,Shaunavon,49.6501,-108.4181,28.18,83,85,11.41,CA,2022-02-13 06:25:28
153,Thap Than,15.4606,99.8917,94.71,36,41,8.1,TH,2022-02-13 06:25:28
154,Chokurdakh,70.6333,147.9167,-2.42,94,100,11.41,RU,2022-02-13 06:25:29
155,Atar,20.5169,-13.0499,62.73,28,73,8.99,MR,2022-02-13 06:17:55
156,Liverpool,53.4106,-2.9779,50.68,94,75,10.36,GB,2022-02-13 06:25:29
157,Kita,13.0349,-9.4895,63.59,16,0,5.21,ML,2022-02-13 06:25:30
158,Aswan,24.0934,32.907,58.89,51,0,9.93,EG,2022-02-13 06:25:31
159,Karasjok,69.4719,25.5112,3.31,99,25,1.99,NO,2022-02-13 06:25:31
160,Hithadhoo,-0.6,73.0833,81.72,72,56,11.03,MV,2022-02-13 06:25:32
161,Yulara,-25.2406,130.9889,96.64,11,12,9.22,AU,2022-02-13 06:20:33
162,Campina Grande Do Sul,-25.3056,-49.0553,62.53,77,75,0.98,BR,2022-02-13 06:25:24
163,Ust-Kulom,61.6864,53.6902,17.24,94,99,2.59,RU,2022-02-13 06:25:34
164,Kalaleh,37.3807,55.4916,51.4,71,0,0.0,IR,2022-02-13 06:25:34
165,Bushehr,28.9684,50.8385,60.82,72,20,11.5,IR,2022-02-13 06:25:35
166,Berezovka,53.7214,25.4993,26.19,75,71,10.87,BY,2022-02-13 06:25:35
167,Oussouye,12.485,-16.5469,69.89,18,8,8.97,SN,2022-02-13 06:25:36
168,Shihezi,44.3,86.0333,28.81,72,94,7.14,CN,2022-02-13 06:25:36
169,Sur,22.5667,59.5289,75.87,42,0,3.18,OM,2022-02-13 06:25:37
170,Pompeia,-22.1086,-50.1717,65.23,92,11,5.86,BR,2022-02-13 06:25:37
171,Vestmanna,62.1564,-7.1664,34.72,87,75,29.93,FO,2022-02-13 06:20:35
172,Burnie,-41.0667,145.9167,69.94,78,100,7.83,AU,2022-02-13 06:25:38
173,Namibe,-15.1961,12.1522,75.67,72,100,2.06,AO,2022-02-13 06:25:38
174,Freeport,40.6576,-73.5832,43.38,58,100,9.22,US,2022-02-13 06:21:44
175,Omsukchan,62.5333,155.8,-25.26,99,42,3.78,RU,2022-02-13 06:25:39
176,San Cristobal,7.7669,-72.225,64.04,78,55,1.52,VE,2022-02-13 06:25:40
177,Vidim,56.4088,103.1106,-1.73,84,66,5.3,RU,2022-02-13 06:25:41
178,Tombouctou,20.0,-3.0,56.23,25,1,11.83,ML,2022-02-13 06:25:41
179,Cockburn Town,21.4612,-71.1419,77.25,73,0,21.68,TC,2022-02-13 06:25:42
180,Weymouth,42.2209,-70.9398,39.74,53,100,10.36,US,2022-02-13 06:25:42
181,Moerai,-22.4333,-151.3333,77.67,76,99,3.06,PF,2022-02-13 06:26:42
182,Malpe,13.35,74.7167,88.9,44,22,6.26,IN,2022-02-13 06:26:43
183,Brigantine,39.4101,-74.3646,45.01,54,100,10.36,US,2022-02-13 06:26:43
184,Cidreira,-30.1811,-50.2056,71.46,86,64,12.35,BR,2022-02-13 06:26:44
185,Madikeri,12.4167,75.7333,81.14,35,30,4.54,IN,2022-02-13 06:26:44
186,Saint George,37.1041,-113.5841,55.35,26,0,5.75,US,2022-02-13 06:26:45
187,Ponta Do Sol,32.6667,-17.1,62.06,71,27,4.45,PT,2022-02-13 06:26:45
188,Florina,40.782,21.4098,40.32,99,100,1.45,GR,2022-02-13 06:26:45
189,Cumra,37.5732,32.7745,23.14,83,89,1.7,TR,2022-02-13 06:26:46
190,Plettenberg Bay,-34.0527,23.3716,71.44,79,100,2.64,ZA,2022-02-13 06:26:46
191,Okhotsk,59.3833,143.3,-1.1,82,3,8.37,RU,2022-02-13 06:26:47
192,Shar,49.5886,81.0453,19.58,80,100,10.13,KZ,2022-02-13 06:26:47
193,Balikpapan,-1.2675,116.8289,85.19,79,20,5.75,ID,2022-02-13 06:26:48
194,Maceio,-9.6658,-35.7353,76.44,94,20,4.61,BR,2022-02-13 06:26:48
195,Sanary-Sur-Mer,43.1178,5.8001,50.94,69,100,5.01,FR,2022-02-13 06:26:48
196,Ibra,22.6906,58.5334,70.79,35,0,5.7,OM,2022-02-13 06:26:49
197,Turayf,31.6725,38.6637,43.05,65,0,0.0,SA,2022-02-13 06:20:46
198,Grand Forks,47.9417,-97.4337,-9.47,77,0,8.05,US,2022-02-13 06:26:50
199,Palmer,42.1584,-72.3287,34.56,56,100,8.05,US,2022-02-13 06:26:51
200,San Patricio,28.017,-97.5169,48.06,48,0,12.77,US,2022-02-13 06:19:15
201,Bilma,18.6853,12.9164,58.23,20,0,8.28,NE,2022-02-13 06:26:51
202,Dasoguz,41.8363,59.9666,42.75,61,0,9.22,TM,2022-02-13 06:26:52
203,Mandurah,-32.55,115.7,93.15,58,0,18.03,AU,2022-02-13 06:26:53
204,Sao Filipe,14.8961,-24.4956,76.55,49,100,20.18,CV,2022-02-13 06:20:32
205,Sturgeon Bay,44.8342,-87.377,6.1,78,0,5.75,US,2022-02-13 06:26:54
206,Vanimo,-2.6741,141.3028,84.6,70,34,9.13,PG,2022-02-13 06:26:54
207,Estelle,29.8458,-90.1067,51.01,58,56,15.01,US,2022-02-13 06:26:55
208,Faanui,-16.4833,-151.75,81.77,70,98,12.41,PF,2022-02-13 06:26:55
209,Cabedelo,-6.9811,-34.8339,79.47,79,23,7.38,BR,2022-02-13 06:26:56
210,Puerto Ayora,-0.7393,-90.3518,74.55,94,77,3.83,EC,2022-02-13 06:22:29
211,Taoudenni,22.6783,-3.9836,57.69,26,0,13.11,ML,2022-02-13 06:26:57
212,Vao,-22.6667,167.4833,81.07,76,98,7.05,NC,2022-02-13 06:26:57
213,Inhambane,-23.865,35.3833,84.18,61,20,4.61,MZ,2022-02-13 06:26:58
214,Jutai,-5.1833,-68.9,72.41,99,65,0.67,BR,2022-02-13 06:26:58
215,Ballina,-28.8667,153.5667,77.18,70,75,17.27,AU,2022-02-13 06:26:59
216,Norman Wells,65.282,-126.8329,-16.56,69,75,6.91,CA,2022-02-13 06:26:59
217,Novoagansk,61.9449,76.6625,-2.83,94,10,9.19,RU,2022-02-13 06:27:00
218,Husavik,66.0449,-17.3389,17.51,94,50,13.6,IS,2022-02-13 06:23:34
219,Nemuro,43.3236,145.575,27.03,81,100,6.85,JP,2022-02-13 06:27:00
220,Gemena,3.25,19.7667,73.76,39,71,0.67,CD,2022-02-13 06:25:12
221,Petrozavodsk,61.7849,34.3469,18.86,93,100,8.95,RU,2022-02-13 06:27:01
222,Nantucket,41.2835,-70.0995,41.14,76,76,14.27,US,2022-02-13 06:27:02
223,Tiruvannamalai,12.2167,79.0667,83.95,46,21,9.69,IN,2022-02-13 06:27:02
224,Shagonar,51.5333,92.8,-15.34,90,87,0.43,RU,2022-02-13 06:27:02
225,Zhanaozen,43.3,52.8,43.2,87,86,16.24,KZ,2022-02-13 06:28:04
226,Ganzhou,28.8184,115.4327,45.64,85,100,2.53,CN,2022-02-13 06:28:04
227,Klaksvik,62.2266,-6.589,36.52,97,100,41.76,FO,2022-02-13 06:28:05
228,Isilkul,54.9109,71.2728,4.98,92,99,4.25,RU,2022-02-13 06:28:05
229,Nouadhibou,20.931,-17.0347,62.58,72,84,18.41,MR,2022-02-13 06:28:05
230,Chapais,49.7834,-74.8492,-24.02,100,50,2.77,CA,2022-02-13 06:28:06
231,Nanortalik,60.1432,-45.2371,25.95,90,100,2.15,GL,2022-02-13 06:28:06
232,San Quintin,30.4833,-115.95,64.17,44,89,4.23,MX,2022-02-13 06:28:07
233,Sal Rei,16.1833,-22.9167,70.36,71,96,21.68,CV,2022-02-13 06:28:07
234,Hokitika,-42.7167,170.9667,57.81,63,100,6.85,NZ,2022-02-13 06:28:08
235,Cap Malheureux,-19.9842,57.6142,86.49,71,29,11.99,MU,2022-02-13 06:28:08
236,Pangkalanbuun,-2.6833,111.6167,82.85,69,99,1.79,ID,2022-02-13 06:28:09
237,Porto Novo,6.4965,2.6036,82.22,89,19,4.38,BJ,2022-02-13 06:28:09
238,Gupitan,7.7758,125.6406,85.82,67,83,9.06,PH,2022-02-13 06:28:11
239,Iqaluit,63.7506,-68.5145,-22.27,74,75,3.44,CA,2022-02-13 06:28:12
240,Silale,55.4906,22.1814,29.59,69,99,12.71,LT,2022-02-13 06:28:12
241,Fare,-16.7,-151.0167,81.03,75,74,14.85,PF,2022-02-13 06:28:13
242,Pointe Michel,15.25,-61.3833,76.78,73,13,20.62,DM,2022-02-13 06:28:13
243,Tura,25.5198,90.2201,74.41,33,0,2.86,IN,2022-02-13 06:28:13
244,Cherskiy,68.75,161.3,-15.63,98,100,9.28,RU,2022-02-13 06:28:14
245,Butaritari,3.0707,172.7902,82.38,76,88,12.66,KI,2022-02-13 06:28:14
246,Baghdad,33.3406,44.4009,53.51,47,0,12.66,IQ,2022-02-13 06:28:15
247,Aguimes,27.9054,-15.4461,57.83,72,20,15.01,ES,2022-02-13 06:28:15
248,Mendi,-6.1761,143.6513,61.03,90,88,2.48,PG,2022-02-13 06:28:16
249,Shahreza,32.0339,51.8794,40.62,66,93,6.04,IR,2022-02-13 06:28:16
250,Ust-Nera,64.5667,143.2,-27.04,99,57,2.77,RU,2022-02-13 06:28:17
251,Beloha,-25.1667,45.05,81.95,62,3,14.34,MG,2022-02-13 06:28:17
252,East London,-33.0153,27.9116,77.94,88,75,14.97,ZA,2022-02-13 06:28:18
253,Lorengau,-2.0226,147.2712,83.43,74,85,3.24,PG,2022-02-13 06:20:36
254,Aden,12.7794,45.0367,76.37,66,3,5.44,YE,2022-02-13 06:28:18
255,Vila Franca Do Campo,37.7167,-25.4333,62.2,92,100,9.22,PT,2022-02-13 06:28:19
256,Upernavik,72.7868,-56.1549,-3.01,85,100,19.86,GL,2022-02-13 06:28:19
257,Gayeri,12.6497,0.4931,68.41,14,1,7.65,BF,2022-02-13 06:28:20
258,Cravo Norte,6.3017,-70.2041,79.68,52,100,6.15,CO,2022-02-13 06:28:20
259,Bengkulu,-3.8004,102.2655,84.16,69,97,7.63,ID,2022-02-13 06:24:01
260,Broome,42.2506,-75.833,27.01,75,100,9.22,US,2022-02-13 06:28:22
261,Oxelosund,58.6706,17.1015,35.53,75,75,13.8,SE,2022-02-13 06:28:23
262,Ensenada,31.8667,-116.6167,66.9,28,28,7.92,MX,2022-02-13 06:28:23
263,Ancud,-41.8697,-73.8203,58.53,92,57,0.18,CL,2022-02-13 06:28:24
264,Belyy Yar,53.6039,91.3903,-7.71,64,90,0.0,RU,2022-02-13 06:28:24
265,Dikson,73.5069,80.5464,-4.45,91,100,25.23,RU,2022-02-13 06:28:25
266,Ixtapa,20.7,-105.2,68.23,76,4,3.11,MX,2022-02-13 06:28:25
267,Vagur,61.4732,-6.8119,38.53,95,99,32.32,FO,2022-02-13 06:28:26
268,Calama,-22.4667,-68.9333,50.72,44,3,1.52,CL,2022-02-13 06:28:01
269,Vardo,70.3705,31.1107,25.05,72,3,16.98,NO,2022-02-13 06:28:26
270,Tuktoyaktuk,69.4541,-133.0374,-34.6,67,0,4.61,CA,2022-02-13 06:29:27
271,Nuevo Casas Grandes,30.4167,-107.9167,42.04,46,0,3.49,MX,2022-02-13 06:29:27
272,Sitka,57.0531,-135.33,37.29,87,100,5.75,US,2022-02-13 06:29:28
273,Beringovskiy,63.05,179.3167,-24.14,95,7,5.01,RU,2022-02-13 06:29:28
274,Gidole,5.65,37.3667,67.28,39,38,6.44,ET,2022-02-13 06:29:29
275,Port Shepstone,-30.7414,30.455,78.4,80,22,11.68,ZA,2022-02-13 06:29:29
276,Sisian,39.5256,46.0251,25.16,65,15,4.74,AM,2022-02-13 06:29:30
277,Tshela,-4.9833,12.9333,73.92,97,100,1.23,CD,2022-02-13 06:29:30
278,Mayumba,-3.432,10.6554,78.19,89,100,5.5,GA,2022-02-13 06:29:31
279,Longuenesse,50.734,2.2352,36.79,76,97,14.14,FR,2022-02-13 06:29:31
280,Pevek,69.7008,170.3133,-18.04,98,100,7.7,RU,2022-02-13 06:29:32
281,Saldanha,-33.0117,17.9442,66.25,81,76,11.21,ZA,2022-02-13 06:29:32
282,Margate,51.3813,1.3862,45.97,83,100,8.01,GB,2022-02-13 06:29:33
283,Decatur,39.8403,-88.9548,16.66,92,23,4.61,US,2022-02-13 06:27:02
284,Chandler,33.3062,-111.8412,69.66,19,0,6.91,US,2022-02-13 06:29:34
285,La Ronge,55.1001,-105.2842,-3.75,77,100,3.44,CA,2022-02-13 06:29:22
286,Luderitz,-26.6481,15.1594,73.38,67,0,11.05,NA,2022-02-13 06:29:34
287,Souillac,-20.5167,57.5167,86.38,74,40,14.97,MU,2022-02-13 06:29:35
288,Tarko-Sale,64.9225,77.785,-5.67,92,6,13.18,RU,2022-02-13 06:29:35
289,Rize,40.9044,40.8949,26.06,70,64,2.1,TR,2022-02-13 06:29:36
290,Ayorou,14.7308,0.9174,66.65,13,20,8.61,NE,2022-02-13 06:29:36
291,Anadyr,64.75,177.4833,-25.1,75,0,13.42,RU,2022-02-13 06:29:37
292,Cervo,43.6702,-7.4101,48.2,70,95,15.52,ES,2022-02-13 06:29:37
293,Taseyevo,57.2169,94.8978,4.32,81,23,8.88,RU,2022-02-13 06:29:39
294,Aykhal,66.0,111.5,-1.59,73,16,2.08,RU,2022-02-13 06:29:39
295,Udachnyy,66.4167,112.4,0.45,77,25,1.19,RU,2022-02-13 06:29:40
296,Gorin,51.1983,136.6669,16.92,92,100,8.34,RU,2022-02-13 06:29:41
297,Inuvik,68.3499,-133.7218,-30.14,75,20,2.3,CA,2022-02-13 06:29:13
298,Sioux Lookout,50.1001,-91.917,-21.62,82,0,0.0,CA,2022-02-13 06:29:41
299,Tome,-36.6167,-72.95,56.26,87,100,6.96,CL,2022-02-13 06:29:42
300,Tromso,69.6496,18.957,19.38,73,0,2.3,NO,2022-02-13 06:28:23
301,Beyneu,45.3167,55.2,41.05,87,100,16.82,KZ,2022-02-13 06:25:42
302,Kampot,10.6167,104.1833,87.85,55,31,7.76,KH,2022-02-13 06:29:43
303,Rocha,-34.4833,-54.3333,61.36,87,100,11.77,UY,2022-02-13 06:29:43
304,Itarema,-2.9248,-39.9167,76.51,90,80,7.05,BR,2022-02-13 06:20:39
305,Abu Dhabi,24.4667,54.3667,69.91,56,20,14.97,AE,2022-02-13 06:27:28
306,Bandarbeyla,9.4942,50.8122,77.97,70,62,14.81,SO,2022-02-13 06:29:44
307,Hualmay,-11.0964,-77.6139,70.43,80,99,7.0,PE,2022-02-13 06:29:45
308,Paracuru,-3.41,-39.0306,82.11,90,91,7.52,BR,2022-02-13 06:29:45
309,Ust-Ilimsk,58.0006,102.6619,2.32,79,37,5.23,RU,2022-02-13 06:29:47
310,Escanaba,45.7453,-87.0646,5.43,78,100,5.75,US,2022-02-13 06:29:47
311,Chenghai,23.4632,116.768,64.31,77,100,6.71,CN,2022-02-13 06:29:48
312,Yar-Sale,66.8333,70.8333,-9.51,95,66,14.47,RU,2022-02-13 06:29:48
313,Madarounfa,13.3087,7.156,59.23,15,0,9.93,NE,2022-02-13 06:29:49
314,Mazyr,52.0495,29.2456,24.33,87,27,6.89,BY,2022-02-13 06:29:49
315,Huarmey,-10.0681,-78.1522,71.89,77,68,6.67,PE,2022-02-13 06:29:50
316,Finnsnes,69.2296,17.9811,20.34,83,100,6.82,NO,2022-02-13 06:30:50
317,Riohacha,11.5444,-72.9072,76.46,76,17,14.23,CO,2022-02-13 06:30:51
318,Broken Hill,-31.95,141.4333,96.51,17,75,9.22,AU,2022-02-13 06:30:51
319,Rio Grande,-32.035,-52.0986,65.95,93,96,13.56,BR,2022-02-13 06:30:52
320,Geraldton,-28.7667,114.6,88.21,42,1,12.66,AU,2022-02-13 06:30:35
321,Gari,59.4307,62.3497,11.16,91,99,5.28,RU,2022-02-13 06:30:53
322,Tuxpan,19.55,-103.4,57.16,59,33,3.8,MX,2022-02-13 06:30:53
323,Kjollefjord,70.9457,27.3465,21.34,72,8,10.11,NO,2022-02-13 06:30:54
324,Nabire,-3.3667,135.4833,83.44,76,100,2.46,ID,2022-02-13 06:30:54
325,Marsh Harbour,26.5412,-77.0636,74.7,87,100,11.56,BS,2022-02-13 06:30:55
326,North Bend,43.4065,-124.2243,49.86,93,0,4.61,US,2022-02-13 06:30:55
327,Harrogate,53.9908,-1.5373,48.4,94,40,6.91,GB,2022-02-13 06:30:56
328,Cartagena,10.3997,-75.5144,78.42,83,20,3.44,CO,2022-02-13 06:30:56
329,Necochea,-38.5473,-58.7368,51.04,73,4,5.01,AR,2022-02-13 06:30:06
330,Tonstad,58.6626,6.7169,44.62,99,100,13.56,NO,2022-02-13 06:30:57
331,Nalagarh,31.05,76.7167,72.28,35,0,5.57,IN,2022-02-13 06:30:57
332,Puerto Rico,-26.796,-55.024,67.3,90,20,2.98,AR,2022-02-13 06:30:58
333,Micheweni,-4.9667,39.8333,81.68,71,100,7.94,TZ,2022-02-13 06:30:59
334,Kaitangata,-46.2817,169.8464,55.92,87,97,8.23,NZ,2022-02-13 06:30:59
335,Jinchang,38.4953,102.1739,28.04,69,100,5.3,CN,2022-02-13 06:31:00
336,Inirida,3.8653,-67.9239,72.66,95,99,2.04,CO,2022-02-13 06:31:00
337,Singaraja,-8.112,115.0882,86.97,82,100,3.09,ID,2022-02-13 06:31:01
338,Colquiri,-17.4167,-67.1333,37.49,88,100,3.11,BO,2022-02-13 06:31:02
339,Srednekolymsk,67.45,153.6833,-24.74,93,82,6.35,RU,2022-02-13 06:31:02
340,Hede,33.7681,120.2517,48.43,45,100,10.16,CN,2022-02-13 06:31:03
341,Durg,21.1833,81.2833,77.18,15,0,4.12,IN,2022-02-13 06:31:04
342,Waipawa,-41.4122,175.5153,54.23,88,100,15.37,NZ,2022-02-13 06:31:06
343,Westport,41.1415,-73.3579,42.78,63,100,5.75,US,2022-02-13 06:28:32
344,Coquimbo,-29.9533,-71.3436,63.9,81,0,2.84,CL,2022-02-13 06:29:19
345,Omboue,-1.5746,9.2618,79.77,84,100,4.05,GA,2022-02-13 06:31:07
346,Mahon,39.8885,4.2658,48.76,93,0,0.0,ES,2022-02-13 06:31:07
347,Puerto Madero,14.7208,-92.4215,73.6,100,0,0.0,MX,2022-02-13 06:31:08
348,Saint-Pierre,-21.3393,55.4781,83.88,70,0,9.22,RE,2022-02-13 06:31:08
349,Tazovskiy,67.4667,78.7,-7.49,90,6,13.09,RU,2022-02-13 06:31:09
350,Cravinhos,-21.3403,-47.7294,68.72,98,7,2.98,BR,2022-02-13 06:31:09
351,Nome,64.5011,-165.4064,-11.13,70,0,3.44,US,2022-02-13 06:30:48
352,Itoman,26.1247,127.6694,71.98,90,75,12.66,JP,2022-02-13 06:31:10
353,Maputo,-25.9653,32.5892,79.23,79,20,3.44,MZ,2022-02-13 06:31:10
354,Harper,4.375,-7.7169,76.44,88,9,4.05,LR,2022-02-13 06:31:11
355,Elko,41.0002,-115.5012,34.65,52,0,5.53,US,2022-02-13 06:27:11
356,Bischofshofen,47.4167,13.2167,31.39,78,15,4.79,AT,2022-02-13 06:31:12
357,Avera,33.194,-82.5271,57.7,67,100,6.55,US,2022-02-13 06:29:37
358,Grand Gaube,-20.0064,57.6608,86.4,72,10,7.0,MU,2022-02-13 06:31:13
359,Havre,49.5833,0.3333,40.77,81,100,15.14,FR,2022-02-13 06:31:13
360,Hurghada,27.2574,33.8129,64.83,42,0,6.69,EG,2022-02-13 06:31:14
361,Tallahassee,30.4383,-84.2807,54.64,87,0,0.0,US,2022-02-13 06:26:45
362,Antofagasta,-23.65,-70.4,66.4,78,60,2.33,CL,2022-02-13 06:31:40
363,Khash,28.2211,61.2158,57.58,32,9,3.47,IR,2022-02-13 06:31:55
364,Bow Island,49.8668,-111.3684,39.58,58,78,10.36,CA,2022-02-13 06:30:02
365,Snezhnogorsk,69.1933,33.2531,-16.82,99,32,8.79,RU,2022-02-13 06:32:16
366,Ngunguru,-35.6167,174.5,70.16,71,6,14.47,NZ,2022-02-13 06:32:16
367,Caceres,39.522,-6.3748,38.8,93,96,4.27,ES,2022-02-13 06:32:17
368,Russell,32.3502,-85.1999,54.68,76,0,8.05,US,2022-02-13 06:30:44
369,Mindelo,16.8901,-24.9804,71.15,64,100,16.11,CV,2022-02-13 06:32:17
370,Shahr-E Babak,30.1165,55.1186,43.14,63,82,15.28,IR,2022-02-13 06:32:18
371,Glendive,47.1053,-104.7125,15.49,85,0,5.75,US,2022-02-13 06:27:33
372,Mackay,-21.15,149.2,81.68,69,40,14.97,AU,2022-02-13 06:32:19
373,Leningradskiy,69.3833,178.4167,-11.58,96,99,4.61,RU,2022-02-13 06:30:30
374,Ovsyanka,55.9575,92.5519,-0.78,82,62,5.06,RU,2022-02-13 06:32:20
375,Gympie,-26.1898,152.665,75.31,72,19,10.2,AU,2022-02-13 06:32:20
376,Filingue,14.3521,3.3168,64.83,14,20,10.42,NE,2022-02-13 06:32:21
377,Quatre Cocos,-20.2078,57.7625,86.11,77,17,13.98,MU,2022-02-13 06:32:21
378,Astoria,46.1879,-123.8313,52.86,75,0,3.0,US,2022-02-13 06:30:31
379,Basco,20.4487,121.9702,77.52,74,98,19.91,PH,2022-02-13 06:32:22
380,Ambon,-3.6954,128.1814,77.14,94,40,3.44,ID,2022-02-13 06:32:22
381,Mahonda,-6.45,39.4667,82.51,76,100,7.23,TZ,2022-02-13 06:32:23
382,Sao Jose Da Coroa Grande,-8.8978,-35.1478,77.81,84,11,6.46,BR,2022-02-13 06:32:24
383,Naze,28.3667,129.4833,65.32,76,100,10.63,JP,2022-02-13 06:32:16
384,Conde,-7.2597,-34.9075,78.26,89,40,1.14,BR,2022-02-13 06:32:25
385,Port Hedland,-20.3167,118.5667,93.25,49,96,13.8,AU,2022-02-13 06:30:29
386,Sorland,67.667,12.6934,29.79,89,100,3.71,NO,2022-02-13 06:32:26
387,Ugoofaaru,5.6667,73.0,82.0,69,95,2.8,MV,2022-02-13 06:29:36
388,Zhuhai,22.2769,113.5678,65.91,82,40,13.8,CN,2022-02-13 06:32:26
389,Northam,51.0333,-4.2167,49.01,95,100,26.91,GB,2022-02-13 06:32:27
390,Lasa,46.6166,10.7002,27.86,34,88,1.12,IT,2022-02-13 06:32:28
391,Det Udom,14.906,105.0784,98.29,32,24,5.5,TH,2022-02-13 06:32:28
392,Karratha,-20.7377,116.8463,94.1,46,100,15.12,AU,2022-02-13 06:32:29
393,Ponta Delgada,37.7333,-25.6667,62.51,100,75,14.97,PT,2022-02-13 06:32:29
394,Arlit,18.7369,7.3853,64.2,17,5,2.8,NE,2022-02-13 06:32:30
395,Vallenar,-28.5708,-70.7581,63.41,72,0,3.02,CL,2022-02-13 06:32:30
396,Jumla,29.2747,82.1838,50.2,48,0,4.5,NP,2022-02-13 06:32:31
397,Salekhard,66.53,66.6019,-6.2,99,100,5.55,RU,2022-02-13 06:32:31
398,Faya,18.3851,42.4509,55.92,38,6,3.51,SA,2022-02-13 06:32:32
399,Ketchikan,55.3422,-131.6461,40.98,93,100,0.0,US,2022-02-13 06:32:32
400,Oktyabrskiy,54.4815,53.471,23.61,92,100,10.63,RU,2022-02-13 06:32:33
401,Romilly-Sur-Seine,48.5108,3.7263,33.19,87,90,6.78,FR,2022-02-13 06:32:33
402,Tocopilla,-22.092,-70.1979,68.72,70,37,3.58,CL,2022-02-13 06:30:32
403,Provideniya,64.3833,-173.3,-9.47,91,5,4.79,RU,2022-02-13 06:32:34
404,Kendari,-3.945,122.4989,79.86,79,98,2.93,ID,2022-02-13 06:32:35
405,Severo-Kurilsk,50.6789,156.125,20.75,70,19,3.87,RU,2022-02-13 06:32:35
406,Grindavik,63.8424,-22.4338,24.75,74,100,2.3,IS,2022-02-13 06:32:36
407,Honiara,-9.4333,159.95,81.59,83,100,0.74,SB,2022-02-13 06:32:36
408,Comodoro Rivadavia,-45.8667,-67.5,58.86,67,0,4.61,AR,2022-02-13 06:32:37
409,Dunedin,-45.8742,170.5036,53.8,79,100,13.0,NZ,2022-02-13 06:32:38
410,Lazaro Cardenas,17.9583,-102.2,73.63,61,4,4.72,MX,2022-02-13 06:30:59
411,Myitkyina,25.3833,97.4,80.17,27,0,1.97,MM,2022-02-13 06:33:38
412,Kavaratti,10.5669,72.642,81.37,68,10,7.96,IN,2022-02-13 06:33:39
413,Canatlan,24.5167,-104.7833,39.76,47,1,6.26,MX,2022-02-13 06:33:39
414,Skaudvile,55.4167,22.6167,30.16,66,100,13.58,LT,2022-02-13 06:33:40
415,Port Macquarie,-31.4333,152.9167,75.88,70,68,7.36,AU,2022-02-13 06:33:40
416,Korla,41.7597,86.1469,37.8,30,100,6.69,CN,2022-02-13 06:33:41
417,Bonfim,3.0833,-59.95,75.24,80,100,9.28,BR,2022-02-13 06:33:41
418,Petropavlovsk-Kamchatskiy,53.0452,158.6483,18.19,45,20,6.71,RU,2022-02-13 06:33:42
419,Kuryk,43.2,51.65,47.93,66,99,24.23,KZ,2022-02-13 06:33:43
420,Nago,26.5881,127.9761,70.23,91,100,6.64,JP,2022-02-13 06:33:43
421,Clyde River,70.4692,-68.5914,-14.57,76,100,25.32,CA,2022-02-13 06:31:20
422,Nizwa,22.9333,57.5333,73.96,29,0,8.08,OM,2022-02-13 06:32:44
423,Luau,-10.7073,22.2247,69.4,79,100,3.58,AO,2022-02-13 06:33:44
424,Ngama,11.7833,17.1667,74.3,12,9,11.79,TD,2022-02-13 06:33:45
425,Hirna,9.2167,41.1,68.49,46,0,7.67,ET,2022-02-13 06:33:45
426,Changde,29.0464,111.6783,50.92,65,100,0.81,CN,2022-02-13 06:33:45
427,Acapulco,16.8634,-99.8901,76.82,78,100,2.3,MX,2022-02-13 06:33:46
428,Tomatlan,19.9333,-105.25,66.2,59,8,3.71,MX,2022-02-13 06:33:47
429,San Juan,-31.5375,-68.5364,66.31,40,5,4.12,AR,2022-02-13 06:31:40
430,Humboldt,40.6665,-123.9178,40.5,73,0,4.18,US,2022-02-13 06:33:50
431,Salalah,17.0151,54.0924,77.09,61,20,2.3,OM,2022-02-13 06:33:51
432,Presidencia Roque Saenz Pena,-26.7852,-60.4388,60.4,80,43,5.75,AR,2022-02-13 06:33:51
433,Atambua,-9.1061,124.8925,81.27,72,46,0.76,ID,2022-02-13 06:33:52
434,Ossora,59.2353,163.0719,-10.19,85,80,7.05,RU,2022-02-13 06:33:53
435,Santa Cruz Del Sur,20.7147,-77.9956,74.62,83,0,5.59,CU,2022-02-13 06:33:54
436,Zhengjiatun,43.5064,123.5064,15.21,67,100,10.6,CN,2022-02-13 06:33:55
437,Bokoro,12.3807,17.0568,71.49,13,44,12.48,TD,2022-02-13 06:33:56
438,Komsomolskiy,40.4272,71.7189,39.92,93,100,2.3,UZ,2022-02-13 06:30:18
439,Bethel,41.3712,-73.414,40.05,68,100,3.44,US,2022-02-13 06:33:19
440,Darhan,49.4867,105.9228,-4.56,83,95,0.43,MN,2022-02-13 06:33:57
441,Leh,34.1667,77.5833,12.78,69,83,2.93,IN,2022-02-13 06:33:58
442,Calvinia,-31.4707,19.776,77.11,49,87,3.44,ZA,2022-02-13 06:33:58
443,Lompoc,34.6391,-120.4579,68.13,62,0,3.44,US,2022-02-13 06:28:59
444,Clinton,42.587,-82.9199,20.21,78,100,5.75,US,2022-02-13 06:33:59
445,Jijiga,9.35,42.8,72.59,36,86,16.71,ET,2022-02-13 06:33:59
446,Ouegoa,-20.35,164.4333,82.9,74,100,5.91,NC,2022-02-13 06:34:00
447,Myaundzha,63.0494,147.1858,-29.61,99,11,2.48,RU,2022-02-13 06:34:00
448,Samarai,-10.6167,150.6667,82.54,69,27,9.22,PG,2022-02-13 06:34:01
449,El Dorado,38.7666,-120.5177,59.02,40,0,3.0,US,2022-02-13 06:34:01
450,Praia Da Vitoria,38.7333,-27.0667,62.85,88,75,14.03,PT,2022-02-13 06:34:02
451,Vila Velha,-20.3297,-40.2925,73.94,96,40,3.44,BR,2022-02-13 06:33:32
452,Santiago,-33.4569,-70.6483,71.85,51,0,6.91,CL,2022-02-13 06:30:21
453,Sidney,-33.8679,151.2073,77.77,61,40,17.27,AU,2022-02-13 06:32:20
454,Gat,31.61,34.7642,62.4,30,0,1.48,IL,2022-02-13 06:32:04
455,Matozinhos,-19.5578,-44.0814,67.87,94,0,2.3,BR,2022-02-13 06:34:04
456,Yeniseysk,58.4497,92.1703,7.29,80,85,9.91,RU,2022-02-13 06:34:04
457,Kaeo,-35.1,173.7833,70.32,67,0,10.13,NZ,2022-02-13 06:34:05
458,Esperance,-33.8667,121.9,76.84,56,0,16.84,AU,2022-02-13 06:34:05
459,Los Llanos De Aridane,28.6585,-17.9182,60.55,72,40,8.05,ES,2022-02-13 06:35:06
460,Hay River,60.8156,-115.7999,-2.22,84,100,13.8,CA,2022-02-13 06:35:06
461,Korgen,66.0771,13.8153,32.27,95,100,5.61,NO,2022-02-13 06:35:07
462,Opuwo,-18.0607,13.84,68.72,84,100,4.03,NA,2022-02-13 06:35:07
463,Sao Felix Do Xingu,-6.6447,-51.995,70.11,98,100,0.6,BR,2022-02-13 06:35:08
464,Dangriga,16.9692,-88.2321,75.97,86,0,8.5,BZ,2022-02-13 06:35:08
465,Xai-Xai,-25.0519,33.6442,78.64,69,100,1.43,MZ,2022-02-13 06:35:09
466,Verkhoyansk,67.5447,133.385,-21.57,95,100,1.1,RU,2022-02-13 06:35:09
467,Rabo De Peixe,37.8,-25.5833,61.29,89,75,14.97,PT,2022-02-13 06:35:10
468,Iralaya,15.0,-83.2333,75.81,82,6,5.99,HN,2022-02-13 06:35:10
469,Atikokan,48.7555,-91.6216,-25.83,100,26,3.11,CA,2022-02-13 06:35:11
470,Wodonga,-36.1167,146.8833,89.28,67,55,4.61,AU,2022-02-13 06:35:11
471,Senanga,-16.1167,23.2667,73.06,76,11,6.82,ZM,2022-02-13 06:35:12
472,Kijang,35.2442,129.2139,56.93,66,100,17.45,KR,2022-02-13 06:35:13
473,Bagli,22.65,76.35,75.42,18,0,4.63,IN,2022-02-13 06:35:13
474,Zaria,11.1113,7.7227,62.89,15,6,9.93,NG,2022-02-13 06:35:14
475,Port Jervis,41.3751,-74.6927,38.25,65,100,7.76,US,2022-02-13 06:30:51
476,Raga,8.4596,25.678,76.05,14,33,8.84,SS,2022-02-13 06:35:14
477,Morehead,37.2711,-87.1764,21.94,71,100,1.01,US,2022-02-13 06:35:15
478,Lima,-12.0432,-77.0282,69.91,82,0,3.44,PE,2022-02-13 06:35:16
479,Unity,52.4501,-109.1682,22.78,82,100,14.2,CA,2022-02-13 06:35:17
480,San Policarpo,12.1791,125.5072,79.63,82,99,15.57,PH,2022-02-13 06:35:17
481,Chicama,-7.8447,-79.1469,66.74,73,100,3.65,PE,2022-02-13 06:35:18
482,Seguin,29.5688,-97.9647,40.39,62,0,6.91,US,2022-02-13 06:35:18
483,Sidi Ali,36.0998,0.4206,45.32,90,4,3.51,DZ,2022-02-13 06:35:19
484,Emerald,-23.5333,148.1667,92.34,29,40,11.5,AU,2022-02-13 06:35:19
485,San Ignacio,17.1561,-89.0714,70.14,99,100,1.48,BZ,2022-02-13 06:35:20
486,Redlands,34.0556,-117.1825,70.02,23,0,1.99,US,2022-02-13 06:30:44
487,Constitucion,-35.3333,-72.4167,57.79,95,23,7.63,CL,2022-02-13 06:30:56
488,Maine-Soroa,13.2114,12.0241,65.16,18,1,9.84,NE,2022-02-13 06:35:21
489,Yerbogachen,61.2767,108.0108,-2.36,90,95,3.76,RU,2022-02-13 06:35:21
490,Bowling Green,36.9903,-86.4436,25.38,69,100,6.91,US,2022-02-13 06:35:22
491,Sao Joao Da Barra,-21.6403,-41.0511,72.25,90,96,3.06,BR,2022-02-13 06:35:23
492,Shingu,33.7333,135.9833,45.91,86,100,5.17,JP,2022-02-13 06:35:23
493,Katangli,51.7102,143.2326,15.28,92,95,10.33,RU,2022-02-13 06:35:24
494,Pirganj,25.8523,88.3618,74.44,37,0,2.35,BD,2022-02-13 06:35:24
495,Coahuayana,18.7333,-103.6833,75.31,53,80,2.19,MX,2022-02-13 06:35:25
496,Codrington,-38.2667,141.9667,72.01,52,100,15.9,AU,2022-02-13 06:35:25
497,Moyeuvre-Grande,49.2517,6.0475,36.03,73,66,4.12,FR,2022-02-13 06:35:26
498,Novikovo,51.1537,37.8879,22.59,90,46,11.23,RU,2022-02-13 06:35:26
499,Mukhen,48.1,136.1,15.15,90,100,4.99,RU,2022-02-13 06:35:27
500,Ormara,25.2088,64.6357,72.16,56,0,12.33,PK,2022-02-13 06:35:27
501,Zhangjiakou,40.81,114.8794,23.05,78,100,14.29,CN,2022-02-13 06:35:28
502,Buala,-8.145,159.5921,82.11,78,100,3.6,SB,2022-02-13 06:30:47
503,Saluzzo,44.6464,7.4862,39.88,78,75,2.3,IT,2022-02-13 06:35:30
504,La Ciotat,43.1748,5.6045,48.56,69,100,13.06,FR,2022-02-13 06:36:30
505,Lavrentiya,65.5833,-171.0,-15.39,93,7,7.11,RU,2022-02-13 06:36:31
506,Yuty,-26.6,-56.25,67.64,81,70,6.31,PY,2022-02-13 06:36:31
507,Wahiawa,21.5028,-158.0236,71.47,76,0,5.75,US,2022-02-13 06:36:31
508,Ginda,30.6945,78.4932,49.17,20,0,6.82,IN,2022-02-13 06:36:33
509,Dafeng,23.4517,108.5881,50.72,79,98,7.36,CN,2022-02-13 06:36:33
510,Paamiut,61.994,-49.6678,19.65,82,100,14.43,GL,2022-02-13 06:36:33
511,Haines Junction,60.7522,-137.5108,24.75,68,82,4.61,CA,2022-02-13 06:36:34
512,Balaipungut,1.05,101.2833,86.41,59,99,2.95,ID,2022-02-13 06:36:35
513,Bathsheba,13.2167,-59.5167,77.61,73,20,17.27,BB,2022-02-13 06:31:40
514,Pamanukan,-6.2842,107.8106,86.34,64,100,10.56,ID,2022-02-13 06:36:35
515,Sorong,-0.8833,131.25,82.89,70,27,4.85,ID,2022-02-13 06:36:36
516,Hirara,24.8,125.2833,68.27,94,75,9.22,JP,2022-02-13 06:36:36
517,Ratnapura,6.6828,80.3992,77.83,87,100,3.24,LK,2022-02-13 06:36:37
518,Ola,59.5833,151.2833,-3.84,82,62,4.65,RU,2022-02-13 06:36:37
519,Launceston,-41.45,147.1667,76.64,54,75,19.57,AU,2022-02-13 06:36:38
520,La Palma,33.8464,-118.0467,75.94,28,0,4.61,US,2022-02-13 06:36:38
521,Beirut,33.8889,35.4944,65.37,54,0,2.3,LB,2022-02-13 06:35:14
522,Ledyard,41.4398,-72.0142,38.66,57,75,12.66,US,2022-02-13 06:36:39
523,Mingshui,36.7167,117.5,46.58,36,95,6.71,CN,2022-02-13 06:36:40
524,Gushikawa,26.3544,127.8686,69.39,90,100,9.22,JP,2022-02-13 06:36:40
525,Jalu,29.0331,21.5482,54.93,45,3,4.07,LY,2022-02-13 06:36:40
526,Narsaq,60.9167,-46.05,28.62,95,100,4.74,GL,2022-02-13 06:32:58
527,Fairbanks,64.8378,-147.7164,11.82,78,100,0.0,US,2022-02-13 06:35:49
528,Cayenne,4.9333,-52.3333,79.09,88,100,4.0,GF,2022-02-13 06:36:41
529,Kurilsk,45.2333,147.8833,28.02,83,99,6.2,RU,2022-02-13 06:36:42
530,Kananga,-5.8958,22.4178,72.05,91,100,4.68,CD,2022-02-13 06:36:42
531,Manokwari,-0.8667,134.0833,81.91,76,76,9.8,ID,2022-02-13 06:36:43
532,Santa Cruz,-17.8,-63.1667,69.26,73,75,12.66,BO,2022-02-13 06:36:43
533,Sao Gabriel Da Cachoeira,-0.1303,-67.0892,72.09,99,100,1.19,BR,2022-02-13 06:36:44
534,Tuatapere,-46.1333,167.6833,53.82,83,99,2.04,NZ,2022-02-13 06:36:44
535,Arona,28.0996,-16.681,56.75,60,20,10.36,ES,2022-02-13 06:36:45
536,Gaoual,11.75,-13.2,65.17,21,0,1.39,GN,2022-02-13 06:36:45
537,Tabou,4.423,-7.3528,76.89,88,15,5.28,CI,2022-02-13 06:36:46
538,Lom Sak,16.7798,101.2422,98.1,39,20,6.91,TH,2022-02-13 06:36:46
539,Ozieri,40.586,9.0012,45.91,96,15,2.71,IT,2022-02-13 06:36:46
540,Alyangula,-13.8483,136.4192,82.27,78,75,4.61,AU,2022-02-13 06:36:47
541,Truro,50.2653,-5.0544,50.76,100,100,29.93,GB,2022-02-13 06:36:47
542,Borovoy,55.4333,86.0833,0.68,60,0,4.47,RU,2022-02-13 06:36:48
543,Richards Bay,-28.783,32.0377,82.26,55,0,13.53,ZA,2022-02-13 06:36:48
544,Sola,-13.8833,167.55,83.07,79,75,0.0,VU,2022-02-13 06:36:49
545,Ust-Karsk,52.7011,118.8077,0.55,75,100,2.89,RU,2022-02-13 06:36:49
546,Bilibino,68.0546,166.4372,-26.01,100,99,1.79,RU,2022-02-13 06:36:50
547,Moyale,3.5167,39.0584,79.83,23,87,9.44,KE,2022-02-13 06:36:50
548,Isangel,-19.55,169.2667,86.11,79,75,4.61,VU,2022-02-13 06:36:51
549,Nhulunbuy,-12.2333,136.7667,90.21,55,40,14.97,AU,2022-02-13 06:36:51
550,Mozarlandia,-14.7447,-50.5706,70.27,98,96,0.78,BR,2022-02-13 06:37:52
551,Goderich,43.7501,-81.7165,11.91,78,100,8.05,CA,2022-02-13 06:37:52
552,Deputatskiy,69.3,139.9,-11.18,94,100,6.26,RU,2022-02-13 06:37:53
553,Hervey Bay,-25.2986,152.8535,76.03,75,9,18.66,AU,2022-02-13 06:37:53
554,Kieta,-6.2167,155.6333,81.9,78,100,1.19,PG,2022-02-13 06:37:54
555,Numaligarh,26.6333,93.75,72.3,47,0,6.06,IN,2022-02-13 06:37:54
556,Planaltina,-15.4528,-47.6142,68.29,98,98,2.44,BR,2022-02-13 06:37:55
557,Minab,27.1467,57.0801,72.9,53,94,3.65,IR,2022-02-13 06:37:55
558,Marsa Matruh,31.3525,27.2453,57.04,70,0,2.51,EG,2022-02-13 06:37:55
559,Luanda,-8.8368,13.2343,75.2,88,20,4.61,AO,2022-02-13 06:33:19
560,Ibarra,0.35,-78.1167,57.74,95,93,2.06,EC,2022-02-13 06:37:57
561,Brownwood,31.7093,-98.9912,32.0,74,0,3.44,US,2022-02-13 06:37:58
562,Keflavik,64.0049,-22.5624,24.71,74,100,2.3,IS,2022-02-13 06:37:58
563,Nha Trang,12.25,109.1833,80.6,71,91,8.14,VN,2022-02-13 06:37:59
564,Chute-Aux-Outardes,49.1168,-68.399,3.51,60,0,10.36,CA,2022-02-13 06:37:59
565,Willmar,45.1219,-95.0433,6.48,78,0,8.05,US,2022-02-13 06:38:00
566,Boffa,10.1667,-14.0333,66.04,74,5,3.27,GN,2022-02-13 06:38:00
567,Arosa,46.7779,9.6762,15.57,42,19,9.13,CH,2022-02-13 06:38:01
568,Port-De-Bouc,43.4,4.9833,47.44,63,0,10.36,FR,2022-02-13 06:38:01
569,Toucheng,24.8592,121.8233,70.14,91,100,9.42,TW,2022-02-13 06:38:02
570,Mount Isa,-20.7333,139.5,94.5,33,7,7.78,AU,2022-02-13 06:38:02
571,Kazachinskoye,57.6953,93.2761,6.39,80,100,10.16,RU,2022-02-13 06:38:03
572,Svetlaya,46.5389,138.3297,26.83,84,100,16.51,RU,2022-02-13 06:38:04
573,Mmathubudukwane,-24.6,26.4333,72.46,38,32,6.08,BW,2022-02-13 06:38:04
574,Qostanay,53.1667,63.5833,3.49,85,100,4.47,KZ,2022-02-13 06:38:05
575,Shitkino,56.3703,98.3543,4.51,79,79,8.7,RU,2022-02-13 06:38:05
576,Cam Ranh,11.9214,109.1591,80.56,74,75,9.22,VN,2022-02-13 06:38:06
577,Mugan,35.9404,101.3842,33.4,27,6,11.3,CN,2022-02-13 06:38:06
578,The Valley,18.217,-63.0578,77.09,73,0,23.55,AI,2022-02-13 06:38:06
579,Lakatoro,-16.0999,167.4164,79.0,85,100,3.71,VU,2022-02-13 06:38:07
580,Iskateley,67.6803,53.1512,10.72,96,100,8.99,RU,2022-02-13 06:38:08
581,Vidalia,32.2177,-82.4135,55.35,71,75,3.44,US,2022-02-13 06:34:43
582,Nara,34.6851,135.8049,40.91,78,100,6.71,JP,2022-02-13 06:38:09
583,Gunjur,13.2019,-16.7339,68.07,30,0,2.3,GM,2022-02-13 06:38:09
584,Kalabo,-14.97,22.6814,71.06,81,93,6.71,ZM,2022-02-13 06:38:10
585,Likasi,-10.9814,26.7333,63.43,96,100,1.79,CD,2022-02-13 06:38:10
586,Yenagoa,4.9247,6.2642,79.39,83,70,3.22,NG,2022-02-13 06:38:11
587,Mazsalaca,57.8633,25.0547,32.0,86,100,14.12,LV,2022-02-13 06:38:11
588,Teeli,51.0333,90.2333,-9.53,87,12,2.77,RU,2022-02-13 06:38:12
589,Labytnangi,66.6572,66.4183,-8.25,100,100,1.41,RU,2022-02-13 06:38:12
590,Dhidhdhoo,6.8833,73.1,81.61,73,100,5.75,MV,2022-02-13 06:38:13
591,Basoko,1.2391,23.616,79.7,61,100,4.09,CD,2022-02-13 06:38:13
592,Gushi,34.6425,109.5843,52.72,39,16,5.28,CN,2022-02-13 06:38:14
593,Santo Antonio Do Ica,-3.1022,-67.9397,71.82,99,89,0.96,BR,2022-02-13 06:38:14
594,Daura,11.5538,11.4085,64.76,22,3,8.77,NG,2022-02-13 06:38:15
595,Evensk,61.95,159.2333,-7.89,77,15,8.3,RU,2022-02-13 06:39:15
596,Hun,29.1268,15.9477,51.17,48,7,6.2,LY,2022-02-13 06:39:16
597,Zeya,53.75,127.2667,9.57,65,100,4.07,RU,2022-02-13 06:39:17
598,Upington,-28.4478,21.2561,73.78,73,0,2.3,ZA,2022-02-13 06:39:17
599,Kimbe,-5.5502,150.1429,83.26,78,34,3.62,PG,2022-02-13 06:39:17
600,Buchanan,5.8808,-10.0467,76.96,88,7,3.96,LR,2022-02-13 06:39:18
601,Laurel,39.0993,-76.8483,41.29,82,100,8.05,US,2022-02-13 06:39:02
602,Chlorakas,34.8042,32.4083,52.83,81,20,5.75,CY,2022-02-13 06:39:19
603,Praia,14.9215,-23.5087,72.14,64,0,23.02,CV,2022-02-13 06:39:19
604,Bairiki,1.3292,172.9752,84.2,70,75,9.22,KI,2022-02-13 06:39:20
605,Te Anau,-45.4167,167.7167,49.84,89,100,2.77,NZ,2022-02-13 06:39:20
606,Anshun,26.25,105.9333,47.95,68,64,2.86,CN,2022-02-13 06:39:20
607,Santa Cruz De La Palma,28.6835,-17.7642,64.54,72,40,8.05,ES,2022-02-13 06:39:21
608,Berlevag,70.8578,29.0864,22.57,72,4,14.85,NO,2022-02-13 06:39:21
609,Bambanglipuro,-7.95,110.2833,82.45,78,100,3.53,ID,2022-02-13 06:39:22
610,Kushiro,42.975,144.3747,29.35,86,75,3.44,JP,2022-02-13 06:38:08
611,Amboasary,-25.0333,46.3833,78.64,60,15,8.88,MG,2022-02-13 06:39:24
612,Debre Birhan,9.6833,39.5333,59.72,35,20,5.48,ET,2022-02-13 06:39:24
613,Boa Vista,2.8197,-60.6733,78.78,69,0,14.97,BR,2022-02-13 06:39:25
614,Kununurra,-15.7667,128.7333,98.58,41,10,4.61,AU,2022-02-13 06:39:25
615,Alice Springs,-23.7,133.8833,96.22,43,0,4.61,AU,2022-02-13 06:36:32
616,Verkhniy Rohachyk,47.2505,34.338,32.95,66,6,4.88,UA,2022-02-13 06:39:26
617,Antalaha,-14.9003,50.2788,84.45,61,19,4.59,MG,2022-02-13 06:39:27
618,Saint-Augustin,51.226,-58.6502,33.26,98,100,17.63,CA,2022-02-13 06:39:27
619,Robertsport,6.7533,-11.3686,75.92,93,13,4.43,LR,2022-02-13 06:39:28
620,Campechuela,20.2342,-77.2789,74.3,81,0,2.89,CU,2022-02-13 06:39:28
621,Malanje,-9.5402,16.341,67.87,75,100,3.24,AO,2022-02-13 06:39:29
622,Wenling,28.3669,121.36,49.91,93,100,10.4,CN,2022-02-13 06:39:29
623,Kulhudhuffushi,6.6221,73.07,81.77,71,99,4.12,MV,2022-02-13 06:39:30
624,Henties Bay,-22.116,14.2845,71.85,74,100,4.36,NA,2022-02-13 06:39:30
625,Uribia,11.7139,-72.266,76.03,72,14,17.43,CO,2022-02-13 06:39:31
626,Suamico,44.6319,-88.0393,8.01,65,40,6.91,US,2022-02-13 06:39:31
627,Dong Xoai,11.5333,106.9167,91.63,43,100,3.6,VN,2022-02-13 06:37:54
628,Erenhot,43.6475,111.9767,7.88,62,100,11.18,CN,2022-02-13 06:39:32
629,Massakory,12.996,15.7293,69.42,14,67,12.57,TD,2022-02-13 06:39:32
630,Macomb,40.4592,-90.6718,16.25,85,0,4.61,US,2022-02-13 06:39:06
631,Rochegda,62.8,43.25,13.5,95,100,5.19,RU,2022-02-13 06:39:33
632,Riyadh,24.6877,46.7219,57.34,29,0,17.43,SA,2022-02-13 06:37:40
633,Lichuan,30.3,108.85,47.03,60,59,2.73,CN,2022-02-13 06:39:34
634,Tamworth,52.634,-1.6959,49.62,91,100,8.99,GB,2022-02-13 06:39:35
635,Saint-Leu,-21.15,55.2833,83.26,74,39,7.9,RE,2022-02-13 06:39:35
636,Sobolevo,54.4299,31.8996,20.7,87,20,11.01,RU,2022-02-13 06:39:36
637,Mashhad,36.297,59.6062,39.34,100,100,4.61,IR,2022-02-13 06:39:36
638,Ulaanbaatar,47.9077,106.8832,-3.87,65,67,6.71,MN,2022-02-13 06:39:36
639,Pimentel,-6.8367,-79.9342,71.29,80,100,8.48,PE,2022-02-13 06:40:37
640,Brae,60.3964,-1.353,44.51,87,96,22.28,GB,2022-02-13 06:40:38
641,Chimbarongo,-34.7,-71.05,57.29,73,0,2.06,CL,2022-02-13 06:40:38
642,Teahupoo,-17.8333,-149.2667,76.53,75,100,15.37,PF,2022-02-13 06:40:39
643,Gualaquiza,-3.4,-78.55,62.58,98,100,0.69,EC,2022-02-13 06:40:39
644,Tual,-5.6667,132.75,82.94,70,92,4.32,ID,2022-02-13 06:40:40
645,Yanji,42.9075,129.5078,23.61,32,2,3.74,CN,2022-02-13 06:40:40
646,Salinopolis,-0.6136,-47.3561,77.63,88,100,7.76,BR,2022-02-13 06:40:41
647,Shively,38.2001,-85.8227,26.46,66,100,8.05,US,2022-02-13 06:40:41
648,Dongsheng,39.8161,109.9776,20.44,40,0,25.61,CN,2022-02-13 06:40:42
649,Taksimo,56.3444,114.8794,-10.37,86,74,1.59,RU,2022-02-13 06:40:43
650,Manadhoo,5.7667,73.3833,80.71,74,100,3.4,MV,2022-02-13 06:40:43
651,Srisailam,16.0833,78.8667,84.74,30,6,6.73,IN,2022-02-13 06:40:44
652,Dese,11.1333,39.6333,61.2,51,31,5.53,ET,2022-02-13 06:40:45
653,Point Fortin,10.1833,-61.6833,73.33,77,74,13.98,TT,2022-02-13 06:40:45
654,Cabanas,22.9758,-82.9219,68.56,88,12,2.73,CU,2022-02-13 06:40:46
655,Aquiraz,-3.9014,-38.3911,82.18,86,94,5.75,BR,2022-02-13 06:40:46
656,Cochrane,51.1834,-114.4687,45.23,36,0,21.85,CA,2022-02-13 06:38:05
657,Muravlenko,63.7898,74.523,-5.3,93,81,10.54,RU,2022-02-13 06:40:47
658,Pokosnoye,55.5258,101.0536,-0.2,84,100,6.64,RU,2022-02-13 06:40:48
659,Kaohsiung,22.6163,120.3133,80.55,68,75,9.22,TW,2022-02-13 06:40:48
660,Gorkovskiy,45.6542,41.199,35.73,76,67,7.72,RU,2022-02-13 06:40:48
661,Belgrade,44.804,20.4651,41.7,70,75,10.36,RS,2022-02-13 06:40:32
662,Putina,-15.4667,-69.4333,44.6,79,100,3.67,PE,2022-02-13 06:40:49
663,Yabrud,33.9674,36.6574,26.26,30,0,5.21,SY,2022-02-13 06:40:50
664,Urazovo,50.0836,38.0395,21.47,92,44,8.77,RU,2022-02-13 06:40:50
665,Kapuskasing,49.4169,-82.4331,-25.51,75,75,2.3,CA,2022-02-13 06:40:51
666,Coria,39.9879,-6.5377,39.45,88,93,0.29,ES,2022-02-13 06:40:51
667,Peleduy,59.6289,112.7406,-3.82,85,82,2.55,RU,2022-02-13 06:40:52
668,Bubaque,11.2833,-15.8333,76.93,42,0,18.7,GW,2022-02-13 06:40:52
669,Wladyslawowo,54.7909,18.4009,32.94,69,87,18.01,PL,2022-02-13 06:40:53
670,Korcula,42.9622,17.1369,32.56,55,96,5.57,HR,2022-02-13 06:40:53
671,Pangnirtung,66.1451,-65.7125,-27.63,98,100,4.29,CA,2022-02-13 06:40:54
672,Mongu,-15.2484,23.1274,68.18,88,100,5.3,ZM,2022-02-13 06:40:54
673,Tres Arroyos,-38.3739,-60.2798,52.16,57,100,7.36,AR,2022-02-13 06:40:55
674,Sabzevar,36.2126,57.6819,43.88,65,0,11.5,IR,2022-02-13 06:40:55
675,Alta Floresta,-9.8756,-56.0861,68.68,98,98,2.71,BR,2022-02-13 06:40:56
676,Ponoka,52.6768,-113.5815,41.47,68,65,13.47,CA,2022-02-13 06:40:56
677,Hamilton,39.1834,-84.5333,25.03,78,100,11.5,US,2022-02-13 06:37:18
678,Forbes,-33.3833,148.0167,86.92,24,7,5.46,AU,2022-02-13 06:40:57
679,Arman,59.7,150.1667,-4.18,85,55,5.84,RU,2022-02-13 06:40:58
680,Gombe,10.2897,11.1673,68.95,16,4,7.72,NG,2022-02-13 06:40:58
681,Soto La Marina,23.7667,-98.2167,51.78,57,11,14.03,MX,2022-02-13 06:41:58
682,Sigli,5.3848,95.9609,83.89,69,15,5.26,ID,2022-02-13 06:41:59
683,Abu Samrah,35.3029,37.1841,51.26,48,6,3.85,SY,2022-02-13 06:41:59
684,Gamboula,4.1178,15.1393,77.9,22,53,1.9,CF,2022-02-13 06:42:00
685,Uarini,-2.99,-65.1083,72.81,99,100,2.04,BR,2022-02-13 06:42:00
686,Tommot,58.9564,126.2925,-3.03,89,93,0.47,RU,2022-02-13 06:42:01
687,Boyolangu,-8.1181,111.8935,83.44,74,100,7.87,ID,2022-02-13 06:42:01
688,Khanpur,28.6453,70.6567,77.38,13,0,4.34,PK,2022-02-13 06:42:02
689,Port-Gentil,-0.7193,8.7815,80.73,80,100,8.19,GA,2022-02-13 06:42:02
690,Moron,-34.6534,-58.6198,58.98,63,0,2.89,AR,2022-02-13 06:42:03
691,Paulo Ramos,-4.2167,-45.1833,72.01,98,97,2.19,BR,2022-02-13 06:42:03
692,Sosva,59.1766,61.8558,12.76,92,99,4.21,RU,2022-02-13 06:42:04
